City Name,Country,Latitude,Longitude,Temperature(F),Humidity(%),Cloudiness(%),Wind Speed(MpH)
carnarvon,au,-30.97,22.13,26.47,66,0,2.93
khatanga,ru,71.98,102.47,51.13,84,0,3.15
san vicente,ph,13.64,-88.78,79.7,78,75,14.99
atuona,pf,-9.8,-139.03,80.56,100,0,6.73
champerico,gt,16.38,-93.6,80.6,69,40,12.75
lorengau,pg,-2.02,147.27,79.03,100,64,5.17
tabasco,mx,21.87,-102.91,68.0,64,75,5.82
cape town,za,-33.93,18.42,51.8,81,75,9.17
kumeny,ru,58.11,49.92,50.5,78,56,15.46
vaini,to,15.34,74.49,70.39,98,92,7.74
altamira,br,-3.2,-52.21,79.39,78,8,2.15
mahebourg,mu,-20.41,57.7,68.0,68,20,8.08
new norfolk,au,-42.78,147.06,48.2,70,20,6.93
klaksvik,fo,62.23,-6.59,50.0,100,92,13.87
lourdes,fr,13.73,-89.37,83.1,78,75,14.99
punta arenas,cl,-53.16,-70.91,39.2,100,90,9.17
quelimane,mz,-17.88,36.89,73.4,88,0,3.36
nikolskoye,ru,59.7,30.79,55.4,76,0,11.18
busselton,au,-33.64,115.35,55.18,100,68,5.73
ancud,cl,-41.87,-73.83,46.18,95,92,11.77
vestmannaeyjar,is,63.44,-20.27,49.96,93,24,7.63
tual,id,-5.67,132.75,79.21,98,80,11.65
pisco,pe,-13.71,-76.2,62.6,82,40,13.87
rikitea,pf,-23.12,-134.97,69.58,100,8,19.71
hithadhoo,mv,-0.6,73.08,78.76,100,32,4.72
gazanjyk,tm,39.24,55.52,65.08,39,0,6.06
baoying,cn,33.24,119.31,78.76,84,0,15.01
hamilton,bm,32.3,-64.78,82.4,74,75,6.93
kapaa,us,22.08,-159.32,85.41,65,40,19.46
barrow,us,-38.31,-60.23,51.76,42,0,21.72
severo-kurilsk,ru,50.68,156.12,52.21,95,92,3.6
tautira,pf,-17.73,-149.15,82.4,51,75,9.17
thompson,ca,55.74,-97.86,75.2,47,90,19.46
harper,lr,30.3,-99.24,95.97,25,1,3.36
ushtobe,kz,45.25,77.98,47.8,73,0,2.82
ampanihy,mg,-24.69,44.75,56.26,58,0,2.93
seoul,kr,37.57,126.98,84.4,54,75,13.87
east london,za,-33.02,27.91,61.21,100,0,11.88
ribeira grande,pt,38.52,-28.7,73.72,100,88,6.73
saskylakh,ru,71.97,114.09,53.74,94,76,6.73
hobart,au,-42.88,147.33,48.2,70,20,6.93
yellowknife,ca,62.45,-114.38,50.0,46,75,8.05
puerto ayora,ec,-0.74,-90.35,77.0,65,0,14.99
bilma,ne,18.69,12.92,82.81,29,0,10.2
tasiilaq,gl,65.61,-37.64,42.8,97,12,10.29
aklavik,ca,68.22,-135.01,50.0,43,75,12.75
russas,br,-4.93,-37.97,81.01,64,0,9.98
rock sound,bs,24.9,-76.2,83.53,100,24,11.43
hofn,is,64.25,-15.21,47.98,100,68,7.96
hermanus,za,-34.42,19.24,46.0,97,92,3.15
butaritari,ki,3.07,172.79,81.01,100,48,9.42
saint-philippe,re,45.36,-73.48,64.45,76,90,4.7
sao joao da barra,br,-21.64,-41.05,74.17,94,24,16.24
bluff,nz,-23.58,149.07,66.25,46,0,4.61
lemgo,de,52.03,8.9,66.29,82,0,5.82
cidreira,br,-30.17,-50.22,52.75,97,0,12.21
mataura,pf,-46.19,168.86,44.2,100,92,4.72
erzin,ru,36.95,36.2,79.84,78,0,2.82
albany,au,42.65,-73.75,70.72,61,40,11.41
port elizabeth,za,39.31,-74.98,76.73,84,75,8.05
ushuaia,ar,-54.81,-68.31,41.0,86,75,13.87
watari,jp,38.04,140.87,86.0,74,40,11.41
salalah,om,17.01,54.1,73.4,100,90,3.36
constitucion,cl,23.99,-104.67,80.6,26,75,9.17
san jose,gt,15.79,120.99,75.16,99,100,3.6
bathsheba,bb,13.22,-59.52,80.6,78,75,24.16
tabuk,sa,17.41,121.44,76.24,80,76,3.6
jamestown,sh,-33.21,138.6,48.88,56,92,6.62
rawson,ar,-43.3,-65.11,62.65,17,92,13.22
bethel,us,60.79,-161.76,55.04,83,90,14.99
mitchell,us,43.71,-98.03,75.02,41,1,9.17
choix,mx,26.71,-108.33,77.68,89,92,1.48
leningradskiy,ru,69.38,178.42,43.48,92,88,10.09
kawardha,in,22.01,81.23,72.55,97,80,6.4
touros,br,-5.2,-35.46,76.78,82,48,16.02
ternate,id,14.29,120.72,84.2,89,75,12.75
tuktoyaktuk,ca,69.44,-133.03,42.8,70,75,11.41
takab,ir,36.4,47.11,45.73,85,0,2.82
kaniama,cd,-7.57,24.18,73.18,69,80,2.71
boralday,kz,43.36,76.86,57.2,67,20,2.24
bredasdorp,za,-34.53,20.04,50.0,71,68,3.36
gari,ru,59.43,62.35,58.96,96,92,3.49
broken hill,au,-31.97,141.45,53.2,46,88,16.02
norman wells,ca,65.28,-126.83,44.6,70,75,17.22
puerto escondido,mx,15.86,-97.07,89.6,62,75,5.82
gazli,uz,40.13,63.45,63.19,40,0,9.31
lewistown,us,40.39,-90.15,70.3,69,1,5.95
bosaso,so,11.28,49.18,88.57,81,0,22.06
bam,ir,29.11,58.36,68.86,22,0,5.39
mar del plata,ar,-46.43,-67.52,55.9,45,8,18.03
yagodnoye,ru,62.52,149.63,57.52,38,0,2.93
sobolevo,ru,54.43,31.9,43.66,82,0,4.38
pevek,ru,69.7,170.27,44.74,100,32,9.98
kodiak,us,39.95,-94.76,69.98,81,1,3.27
luderitz,na,-26.65,15.16,52.39,81,0,20.38
port alfred,za,-33.59,26.89,52.93,100,0,7.4
puerto del rosario,es,28.5,-13.86,71.6,88,0,11.41
baykit,ru,61.68,96.39,49.87,89,80,5.17
san patricio,mx,-26.98,-56.83,47.35,88,0,4.61
ferme-neuve,ca,46.7,-75.45,56.8,72,0,10.42
waipawa,nz,-39.94,176.59,45.64,99,92,8.63
cherskiy,ru,68.75,161.3,47.44,74,0,2.37
hudiksvall,se,61.73,17.1,62.2,94,80,14.23
batemans bay,au,-35.71,150.18,54.01,89,0,2.04
baruun-urt,mn,46.68,113.28,66.16,61,32,6.4
morros,br,-2.87,-44.04,78.8,83,0,9.17
boende,cd,-0.28,20.88,70.03,99,100,3.38
chumikan,ru,54.72,135.31,56.71,98,92,5.61
kalmunai,lk,7.42,81.82,76.42,85,68,3.15
tiksi,ru,71.64,128.87,44.74,100,92,7.85
plettenberg bay,za,-34.05,23.37,55.45,100,0,7.96
padang,id,-0.92,100.36,78.85,100,56,3.04
edd,er,13.93,41.69,86.77,37,36,4.38
canico,pt,32.63,-16.85,70.57,56,20,2.24
vila franca do campo,pt,37.72,-25.43,69.8,77,20,3.36
cataingan,ph,12.0,123.99,85.24,89,20,16.91
castro,cl,-42.48,-73.76,45.82,94,80,11.77
shingu,jp,33.72,135.99,84.2,79,40,21.92
houma,us,35.63,111.36,70.3,70,48,3.04
kuching,my,1.56,110.34,77.0,94,75,4.16
hilo,us,19.71,-155.08,67.86,90,90,8.05
pitiquito,mx,30.68,-112.05,91.36,68,0,2.15
altay,cn,47.83,88.13,34.03,73,12,2.37
havelock,us,34.88,-76.9,80.2,93,1,8.05
los llanos de aridane,es,28.66,-17.92,71.6,78,8,6.93
rovereto,it,45.89,11.05,69.8,77,0,4.7
rio blanco,ni,-16.34,-67.55,44.6,36,88,4.7
beloha,mg,-25.17,45.06,55.36,78,0,2.93
lakhdenpokhya,ru,61.52,30.2,55.36,82,92,8.19
yumen,cn,40.29,97.04,61.66,45,92,6.29
brcko,ba,44.87,18.81,66.2,93,0,2.93
plotnikovo,ru,55.04,83.4,55.4,93,90,8.95
palu,id,-0.9,119.87,68.95,90,0,1.7
perth,au,56.4,-3.43,50.0,93,0,4.7
hualmay,pe,-11.1,-77.61,59.41,90,24,6.17
roma,au,41.89,12.48,69.82,83,20,5.82
nanortalik,gl,60.14,-45.24,42.49,92,68,21.72
avarua,ck,-21.21,-159.78,75.2,60,75,11.41
anadyr,ru,64.73,177.51,55.4,82,90,6.71
tilichiki,ru,60.47,166.1,57.97,91,8,3.94
nioro,ml,13.79,-15.05,74.71,99,88,5.28
thai binh,vn,20.45,106.33,77.32,100,44,4.38
sitka,us,37.17,-99.65,70.12,92,88,15.68
san carlos de bariloche,ar,-41.13,-71.31,33.8,95,90,18.34
kendari,id,-3.99,122.52,78.94,72,48,2.93
arraial do cabo,br,-22.97,-42.02,71.6,94,40,10.29
kudahuvadhoo,mv,2.67,72.89,82.63,100,0,10.2
kruisfontein,za,-34.0,24.73,51.49,100,0,8.3
faya,td,18.39,42.45,66.2,82,5,6.96
tateyama,jp,36.66,137.31,89.6,46,75,3.36
mongo,td,4.83,22.92,68.95,100,88,2.37
rabaul,pg,-4.2,152.17,77.68,100,92,3.15
victoria,sc,5.28,115.24,77.0,94,75,2.24
lanzhou,cn,36.06,103.82,57.2,87,0,2.24
souillac,mu,45.6,-0.6,72.39,69,0,3.36
kaputa,zm,-8.47,29.66,58.6,77,0,1.14
sorland,no,67.67,12.69,54.91,97,92,32.68
port lincoln,au,-34.72,135.86,53.74,100,92,8.63
skibbereen,ie,51.55,-9.27,50.0,87,0,8.05
yerbogachen,ru,61.28,108.01,53.56,85,20,3.71
thessalon,ca,46.26,-83.55,66.07,51,1,3.36
gueret,fr,46.17,1.87,71.6,64,0,3.36
sisimiut,gl,66.94,-53.67,37.63,95,88,3.04
coquimbo,cl,-29.95,-71.34,50.0,81,75,5.82
mahanoro,mg,-19.9,48.8,57.34,100,8,2.37
amahai,id,-3.31,129.0,79.93,100,92,12.44
katsuura,jp,33.93,134.5,84.22,83,75,11.41
grand gaube,mu,-20.01,57.66,68.0,68,20,15.01
arman,ru,59.7,150.17,66.2,59,0,4.47
gallipoli,it,40.06,18.0,75.24,94,20,2.24
naze,jp,5.43,7.07,73.4,100,75,4.16
muros,es,42.77,-9.06,64.4,100,20,3.36
chokurdakh,ru,70.62,147.9,48.61,80,0,5.17
airai,pw,-8.93,125.41,69.76,81,0,2.04
kuznechnoye,ru,61.12,29.87,57.52,99,88,9.75
nushki,pk,29.55,66.02,60.31,38,0,2.71
khani,ru,41.96,42.96,69.8,94,92,3.36
carballo,es,43.21,-8.69,65.26,88,24,2.59
kaitangata,nz,-46.28,169.85,44.83,99,92,6.96
iqaluit,ca,63.75,-68.52,41.0,86,75,10.29
buala,sb,-8.15,159.59,83.35,84,92,6.73
danshui,cn,22.81,114.46,82.63,98,68,5.73
torbay,ca,47.66,-52.73,64.4,93,20,4.7
gusau,ng,12.17,6.66,70.21,97,76,6.51
portland,au,45.52,-122.67,89.8,24,90,8.05
nabire,id,-3.36,135.5,75.43,84,0,1.36
cabo san lucas,mx,22.89,-109.91,88.0,62,20,4.7
georgetown,sh,6.8,-58.16,77.0,94,20,4.7
bilibino,ru,68.06,166.44,54.55,70,32,2.26
vostok,ru,46.45,135.83,62.29,95,92,2.71
zhezkazgan,kz,47.8,67.71,54.37,80,20,3.71
usinsk,ru,66.0,57.56,54.82,98,92,10.42
half moon bay,us,37.46,-122.43,72.57,65,20,17.22
martapura,id,-3.41,114.85,75.2,88,20,1.12
lagoa,pt,37.14,-8.45,78.8,34,0,2.24
sarangani,ph,5.4,125.46,84.97,95,68,7.96
wajima,jp,37.4,136.9,87.8,74,75,5.82
roros,no,62.57,11.38,46.4,100,36,3.36
chuy,uy,-33.69,-53.46,46.18,96,0,5.28
agua branca,br,-5.89,-42.63,86.23,31,92,8.08
belmonte,br,40.36,-7.35,65.53,71,0,1.59
ahar,ir,38.48,47.07,46.45,93,24,2.48
cayenne,gf,4.94,-52.33,75.2,100,0,9.64
epernay,fr,45.45,5.88,67.19,77,0,9.17
baie-comeau,ca,49.22,-68.15,67.17,93,90,12.75
sao marcos,br,-28.97,-51.07,49.15,92,64,7.52
pangnirtung,ca,66.15,-65.72,41.95,86,88,8.63
flinders,au,-34.58,150.85,57.2,54,20,3.36
liepaja,lv,56.52,21.02,57.2,71,8,6.93
lebu,cl,8.96,38.73,53.11,100,92,2.82
pamanukan,id,-6.28,107.82,79.93,100,20,8.41
winnemucca,us,40.97,-117.74,86.0,2,1,9.17
sao filipe,cv,14.9,-24.5,76.78,100,100,9.42
ulagan,ru,50.63,87.96,31.24,84,24,2.37
port blair,in,11.67,92.75,83.44,95,56,16.91
bubaque,gw,11.28,-15.83,79.93,100,92,10.54
seybaplaya,mx,19.65,-90.67,78.8,74,75,9.08
sukhothai,th,17.01,99.82,80.4,83,40,5.82
henties bay,na,-22.12,14.28,49.6,100,0,3.94
longyearbyen,sj,78.22,15.63,41.0,86,75,4.7
najran,sa,17.54,44.22,80.6,14,0,4.7
lao cai,vn,22.48,103.95,69.04,96,68,1.7
sinaloa,mx,32.55,-115.28,105.26,23,5,11.41
tagusao,ph,9.19,117.81,83.71,84,24,5.95
berlevag,no,70.86,29.09,40.15,100,24,2.93
ekhabi,ru,53.51,142.97,61.3,87,0,7.18
campbell river,ca,50.02,-125.24,78.21,36,90,4.7
anahuac,mx,29.77,-94.68,89.92,55,1,2.71
peleduy,ru,59.63,112.75,55.9,100,64,3.15
yar-sale,ru,66.83,70.83,55.45,92,0,13.67
dunedin,nz,-45.87,170.5,41.68,100,92,3.94
necochea,ar,-38.55,-58.74,49.06,66,0,18.7
subate,lv,56.01,25.91,50.59,87,0,8.97
ndjole,ga,-0.18,10.76,71.2,87,8,3.94
salym,ru,60.06,71.48,54.19,98,92,2.15
khakhea,bw,-24.69,23.5,51.85,27,0,8.97
ati,td,13.21,18.34,71.38,94,24,10.09
devavanya,hu,47.03,20.97,69.8,60,0,4.7
ponta do sol,pt,-20.63,-46.0,63.91,54,88,4.72
zhanakorgan,kz,43.91,67.25,55.99,68,0,4.38
sangar,ru,63.92,127.47,63.46,75,8,4.72
faanui,pf,-16.48,-151.75,78.22,100,8,18.03
mundo nuevo,mx,-32.72,-71.41,48.2,87,90,2.24
peterhead,gb,-34.83,138.5,64.4,22,0,10.29
brigantine,us,39.41,-74.36,74.43,76,1,5.82
srandakan,id,-7.94,110.25,71.11,100,88,3.27
provideniya,ru,64.42,-173.23,53.6,76,40,15.66
kapuskasing,ca,49.42,-82.43,66.2,59,40,5.82
izumo,jp,35.37,132.75,88.39,49,40,17.22
berga,es,42.1,1.85,69.8,83,12,4.7
bria,cf,6.54,21.99,65.08,94,36,2.93
hayesville,us,35.05,-83.82,68.67,91,40,5.95
imeni poliny osipenko,ru,52.42,136.49,61.03,99,92,4.61
narok,ke,-1.09,35.87,57.43,99,92,3.38
dakar,sn,14.69,-17.45,80.6,83,40,4.7
ingraj bazar,in,25.0,88.15,79.03,96,92,5.61
kurilsk,ru,45.23,147.88,65.71,83,12,15.01
margate,za,-43.03,147.26,48.2,70,20,6.93
ponta delgada,pt,37.73,-25.67,69.8,77,20,3.36
maragogi,br,-9.01,-35.22,73.36,98,80,9.64
dingle,ie,11.0,122.67,82.63,78,20,6.17
alice springs,au,-23.7,133.88,57.2,35,0,17.22
katobu,id,-4.94,122.53,80.83,88,64,5.17
clinton,us,41.84,-90.19,71.96,53,1,3.36
zhigansk,ru,66.77,123.37,57.16,68,24,7.74
isangel,vu,-19.55,169.27,75.2,88,90,8.05
porosozero,ru,62.72,32.71,52.48,68,88,5.73
tigil,ru,57.8,158.67,55.63,71,0,6.73
viedma,ar,-40.81,-62.99,62.92,24,92,20.83
solnechnyy,ru,50.72,136.64,63.37,93,88,4.16
narsaq,gl,60.91,-46.05,42.8,70,0,3.36
kearney,us,40.7,-99.08,66.2,75,90,6.93
christchurch,nz,-43.53,172.64,51.8,76,48,10.29
tenno,jp,45.92,10.83,69.8,77,0,4.7
voi,ke,-3.4,38.57,62.11,97,88,5.06
blackwater,au,51.33,-0.78,64.8,93,75,5.82
ilulissat,gl,69.22,-51.1,37.4,69,44,4.7
killybegs,ie,54.63,-8.45,55.45,100,92,14.0
lovozero,ru,68.01,35.02,39.7,91,36,2.71
xiongzhou,cn,32.34,118.83,80.6,78,0,6.71
moche,pe,-8.17,-79.01,62.6,88,90,9.17
namatanai,pg,-3.66,152.44,78.49,100,64,4.61
conchas,br,-23.02,-48.01,70.93,63,92,9.75
blythe,us,33.61,-114.59,105.08,26,1,12.75
nizwa,om,22.93,57.53,75.97,57,32,1.36
primo tapia,mx,32.22,-116.92,78.96,71,75,8.05
upernavik,gl,72.79,-56.15,41.86,88,68,7.52
aksha,ru,50.28,113.29,61.57,90,0,4.16
beringovskiy,ru,63.05,179.32,52.3,95,20,17.58
wicklow,ie,53.0,-6.42,50.7,87,75,9.17
marfino,ru,56.07,37.56,45.41,87,0,6.71
banjar,id,-7.37,108.54,69.67,96,56,3.49
esperance,au,10.24,-61.45,80.6,83,40,10.29
marau,br,-28.45,-52.2,47.53,97,68,4.83
saint-augustin,ca,44.83,-0.61,69.8,73,0,4.7
gayeri,bf,12.65,0.49,74.44,91,100,2.71
lavrentiya,ru,65.58,-170.99,48.25,93,48,6.06
moratuwa,lk,6.77,79.88,77.0,88,40,6.93
tallahassee,us,30.44,-84.28,82.51,83,1,2.93
hasaki,jp,35.73,140.83,87.46,70,75,10.29
porto seguro,br,-16.44,-39.06,73.4,83,20,4.7
conde,br,-11.81,-37.61,73.54,94,80,6.73
qaanaaq,gl,77.48,-69.36,36.82,98,80,4.38
praia,cv,-20.25,-43.81,66.2,52,0,8.05
new bern,us,35.11,-77.04,80.04,90,40,4.7
dongsheng,cn,29.72,112.52,80.47,75,76,13.33
upata,ve,8.02,-62.41,75.52,84,12,2.71
washington,us,38.9,-77.04,75.92,56,1,3.36
tuatapere,nz,-46.13,167.69,46.36,100,92,6.51
bambous virieux,mu,-20.34,57.76,68.0,68,20,8.08
hobyo,so,5.35,48.53,75.43,72,44,18.37
kavaratti,in,10.57,72.64,79.75,100,48,16.02
avera,pf,33.19,-82.53,81.81,70,1,4.7
hit,iq,33.64,42.83,82.72,27,0,10.65
kampot,kh,10.62,104.18,77.05,93,36,6.62
esfarayen,ir,37.08,57.51,60.8,44,0,4.7
camacha,pt,33.08,-16.33,70.83,83,20,2.24
aketi,cd,2.74,23.78,68.86,100,92,2.59
nemuro,jp,43.32,145.57,73.4,83,75,3.36
weligama,lk,5.97,80.42,78.31,91,64,12.77
bacolod,ph,10.68,122.95,84.43,69,12,9.42
fortuna,us,38.18,-1.13,73.4,78,0,2.59
dodge city,us,37.75,-100.02,71.06,78,40,11.41
sur,om,22.57,59.53,83.8,93,44,3.15
vila velha,br,-3.71,-38.6,80.6,78,75,9.17
takoradi,gh,4.89,-1.75,71.83,99,92,8.19
polovinnoye,ru,54.79,65.99,54.19,84,0,4.94
povarovo,ru,56.08,37.05,45.43,87,0,6.71
mercedes,ar,-33.25,-58.03,50.68,82,56,10.87
talnakh,ru,69.49,88.39,49.15,82,0,2.59
kapiri mposhi,zm,-13.97,28.68,56.53,59,0,4.16
nome,us,30.04,-94.42,88.25,53,1,3.36
chaozhou,cn,23.66,116.62,80.6,94,32,2.24
suntar,ru,62.16,117.65,58.6,87,80,3.71
saint-louis,re,47.59,7.56,68.76,88,20,3.36
gat,ly,14.69,-16.54,80.6,83,36,2.24
codrington,ag,-28.95,153.24,60.49,61,0,3.49
langxiang,cn,46.95,128.87,65.53,81,0,2.71
cururupu,br,-1.82,-44.87,77.95,80,0,7.96
kaeo,nz,-35.1,173.78,57.79,77,20,17.25
labuhan,id,-2.54,115.51,76.33,89,12,2.71
shimoda,jp,34.7,138.93,80.37,74,75,10.29
praia da vitoria,pt,38.73,-27.07,71.6,100,75,14.79
deputatskiy,ru,69.3,139.9,48.61,71,48,4.72
nouadhibou,mr,20.93,-17.03,71.6,83,0,12.75
ambilobe,mg,-13.19,49.05,68.86,69,0,11.88
karratha,au,-20.74,116.85,63.1,19,0,18.48
lumby,ca,50.25,-118.97,75.43,43,0,1.81
college,us,64.86,-147.8,58.23,53,1,5.82
neuquen,ar,-38.95,-68.06,59.0,28,80,12.75
guajara,br,-0.88,-48.16,77.0,83,0,8.05
gigmoto,ph,13.78,124.39,84.16,93,0,16.58
constantine,dz,36.36,6.61,64.4,88,40,2.24
san jeronimo,mx,-13.65,-73.37,47.53,52,44,1.92
el real de santa maria,pa,8.11,-77.73,78.76,98,64,4.61
saint george,bm,39.45,22.34,71.6,46,0,5.82
mao,td,19.55,-71.08,82.4,74,40,11.41
canto do buriti,br,-8.11,-42.94,78.4,35,0,10.76
hambantota,lk,6.12,81.12,79.66,99,64,16.02
kuusamo,fi,65.96,29.19,46.4,81,90,4.7
wabana,ca,47.63,-52.95,64.4,93,20,4.7
udachnyy,ru,66.42,112.4,47.8,91,24,5.73
novoagansk,ru,61.94,76.66,52.03,98,56,4.16
bar harbor,us,44.39,-68.2,67.46,93,90,5.82
doha,kw,25.29,51.53,93.2,59,0,3.36
bandarban,bd,22.2,92.22,80.6,94,90,5.82
batagay-alyta,ru,67.8,130.41,53.47,89,92,3.94
umm bab,qa,25.21,50.81,77.68,78,0,4.61
whitehorse,ca,60.72,-135.06,64.4,39,75,12.75
caucaia,br,-3.73,-38.66,80.6,78,75,9.17
dikson,ru,73.51,80.55,43.48,100,8,8.19
balkhash,kz,46.84,74.98,62.11,100,0,6.85
petatlan,mx,17.52,-101.27,91.4,63,75,5.82
alyangula,au,-13.85,136.42,76.78,90,0,7.07
meulaboh,id,4.14,96.13,75.7,100,88,5.61
putina,pe,-14.91,-69.87,51.8,32,20,8.05
oranjemund,na,-28.55,16.43,55.72,97,0,18.59
portobelo,pa,9.55,-79.65,77.0,88,75,6.93
kenora,ca,49.76,-94.48,79.72,27,1,8.05
bayan,kw,47.25,107.54,53.47,100,88,4.83
pingliang,cn,35.54,106.68,56.8,88,12,2.48
hachinohe,jp,40.47,141.48,91.4,55,40,9.17
itoman,jp,26.12,127.67,86.76,77,75,11.41
ko samui,th,9.54,99.94,84.2,74,20,2.24
aksarka,ru,66.56,67.8,54.55,76,64,12.55
karaton,kz,-6.34,106.1,80.6,69,40,3.36
walvis bay,na,-22.95,14.51,54.37,100,0,12.44
socorro,us,13.06,121.41,79.75,90,36,6.62
longview,us,32.5,-94.74,85.46,55,1,3.36
ukiah,us,39.15,-123.21,86.0,33,1,9.17
ferkessedougou,ci,9.6,-5.2,70.03,99,88,2.93
zyryanovsk,kz,49.74,84.27,48.16,82,20,2.04
harer,et,42.19,-111.17,62.56,65,32,2.71
iramuco,mx,19.95,-100.92,62.6,88,90,6.93
clyde river,ca,70.47,-68.59,39.2,93,90,9.17
ozernovskiy,ru,51.5,156.52,56.26,85,0,4.16
aswan,eg,24.09,32.9,80.29,45,0,7.4
wichita falls,us,33.91,-98.49,89.17,42,1,9.17
igarka,ru,67.47,86.57,51.85,75,0,9.08
huejuquilla el alto,mx,22.63,-103.9,63.64,87,44,2.71
kuala terengganu,my,5.33,103.14,75.2,100,75,1.92
el banco,co,9.0,-73.97,72.91,100,56,2.59
rexburg,us,43.82,-111.79,61.56,58,20,10.29
uarini,br,-2.98,-65.16,78.85,81,0,3.94
ijsselstein,nl,52.02,5.05,58.39,93,40,4.7
emerald,au,-23.53,148.16,65.26,38,0,4.27
campoverde,pe,41.54,12.73,69.78,83,20,5.82
sosnovo-ozerskoye,ru,52.53,111.54,60.13,90,8,4.38
palmer,us,-34.85,139.16,64.4,22,0,10.29
vao,nc,59.1,26.19,58.51,75,20,11.21
fort nelson,ca,58.81,-122.69,53.6,87,90,8.05
joao pinheiro,br,-17.74,-46.17,66.43,58,64,4.94
riyadh,sa,24.63,46.72,84.2,10,0,5.82
bambanglipuro,id,-7.95,110.28,71.11,100,88,3.27
qiongshan,cn,20.01,110.35,80.6,94,0,6.71
hailar,cn,49.2,119.7,65.62,85,0,4.72
casper,us,42.87,-106.31,66.92,48,1,11.41
jumla,np,29.28,82.18,38.53,93,92,2.71
tomatlan,mx,19.93,-105.25,85.78,68,12,3.38
russell,nz,-33.01,-68.8,51.8,58,0,3.36
carmelo,uy,-34.0,-58.28,55.45,71,0,8.05
vuktyl,ru,63.86,57.31,53.74,99,92,2.93
colchester,gb,51.89,0.9,64.58,88,0,6.93
ahipara,nz,-35.17,173.16,56.08,91,88,18.48
kilrush,ie,51.96,-8.06,50.0,87,0,9.17
kieta,pg,-6.22,155.63,80.11,100,20,2.71
menongue,ao,-14.66,17.68,68.5,44,92,2.37
seymchan,ru,62.93,152.39,54.01,66,0,3.71
vagur,fo,61.47,-6.81,52.75,98,56,22.5
kungurtug,ru,50.6,97.53,50.14,94,92,1.7
ugoofaaru,mv,5.67,73.0,82.45,100,0,15.12
micheweni,tz,-4.97,39.83,76.78,100,88,13.67
verkhoyansk,ru,67.55,133.39,57.16,81,76,3.6
la tuque,ca,47.44,-72.79,57.88,93,92,10.98
vardo,no,39.62,-77.74,73.71,50,5,5.82
luoyang,cn,34.66,112.42,75.25,56,20,3.6
marzuq,ly,14.4,46.47,74.53,31,56,0.92
lethem,gy,3.38,-59.8,80.56,76,36,0.92
tripoli,ly,37.51,22.37,68.0,82,0,1.59
kenitra,ma,34.26,-6.57,69.8,88,0,2.24
ruteng,id,-8.61,120.46,70.12,94,0,3.83
shache,cn,38.42,77.24,74.53,42,92,13.56
luganville,vu,-15.51,167.18,77.5,100,80,5.17
wencheng,cn,27.79,120.09,76.87,91,20,2.82
pacifica,us,37.61,-122.49,72.43,56,1,14.99
aksu,cn,52.04,76.93,46.4,100,0,4.47
humaita,br,-24.93,-65.37,53.6,40,0,4.7
makhu,in,31.11,74.97,80.6,94,90,5.73
boa vista,br,2.82,-60.67,82.4,74,20,5.82
milkovo,ru,41.53,24.68,67.21,52,0,2.24
mathbaria,bd,22.29,89.96,81.55,94,92,6.51
vazhiny,ru,60.96,34.04,50.95,71,48,6.85
saint-pierre,pm,48.95,4.24,63.41,77,0,5.82
san cristobal,ec,-0.39,-78.55,53.6,71,75,17.22
willemstad,an,51.69,4.44,59.76,100,0,1.12
bellary,in,15.15,76.93,72.55,87,88,13.67
nakhon ratchasima,th,14.97,102.09,80.6,83,40,5.82
port pirie,au,-33.18,138.01,57.2,67,75,10.29
quthing,ls,-30.4,27.7,29.44,90,0,1.14
purgstall,at,48.06,15.14,61.21,87,8,2.37
nioaque,br,-21.16,-55.83,61.57,97,76,3.94
ngunguru,nz,-35.62,174.5,58.24,100,0,22.06
bachaquero,ve,9.96,-71.12,87.94,79,44,9.42
pacific grove,us,36.62,-121.92,68.86,56,1,18.34
melilla,es,-0.8,-80.23,71.6,83,20,9.17
manggar,id,-2.88,108.27,80.38,89,0,8.52
rakiv lis,ua,51.62,24.92,57.88,67,0,9.75
sinjar,iq,35.59,37.0,70.12,91,0,8.86
daltenganj,in,24.03,84.07,76.51,94,92,6.4
indija,rs,55.45,22.23,53.02,75,0,8.52
mount gambier,au,-37.83,140.78,50.23,85,24,6.29
anuchino,ru,43.97,133.06,67.96,73,92,3.15
sibolga,id,1.74,98.78,68.5,100,92,1.36
daru,pg,7.99,-10.85,70.75,100,92,3.38
caxito,ao,-22.65,-42.51,71.6,94,40,10.29
sao jose da coroa grande,br,-8.9,-35.15,73.36,98,80,9.64
chitral,pk,35.85,71.79,39.88,43,0,1.36
veraval,in,49.65,0.71,62.6,88,90,5.82
lyuban,ru,52.8,28.0,48.7,83,0,3.15
kavieng,pg,-2.57,150.8,81.37,100,68,4.05
shenjiamen,cn,29.96,122.3,82.36,92,0,21.83
gumdag,tm,39.2,54.59,71.65,31,0,11.54
clarence town,bs,-32.59,151.78,60.8,55,20,9.17
mehamn,no,71.03,27.85,41.23,94,88,3.27
inta,ru,66.04,60.13,51.22,71,64,3.71
harpanahalli,in,14.8,75.98,70.21,96,100,13.78
shakawe,bw,-18.36,21.84,55.45,41,0,2.59
segezha,ru,63.74,34.31,51.76,74,64,5.61
sampit,id,-2.54,112.95,77.05,89,0,7.18
glens falls,us,43.31,-73.64,69.01,70,20,5.82
yamada,jp,36.58,137.08,89.6,46,75,3.36
novosibirsk,ru,55.03,82.92,55.4,93,90,8.95
fukue,jp,35.03,136.69,84.04,70,75,32.21
ostrovnoy,ru,68.05,39.51,45.55,93,92,16.13
mayor pablo lagerenza,py,-19.93,-60.77,58.6,79,0,7.18
wuwei,cn,37.93,102.64,51.13,80,0,2.37
manzhouli,cn,49.6,117.43,65.44,73,0,2.48
carutapera,br,-1.2,-46.02,78.49,83,0,8.75
saldanha,za,41.42,-6.55,63.91,82,24,2.71
middelburg,za,-25.77,29.46,46.63,45,0,2.37
biltine,td,14.53,20.93,71.92,90,24,8.19
preeceville,ca,51.95,-102.67,77.95,36,0,11.1
bafq,ir,31.6,55.4,62.11,34,0,2.59
borogontsy,ru,62.67,131.17,65.26,84,32,3.71
tromso,no,69.65,18.96,46.4,87,0,21.92
matelica,it,43.26,13.01,62.6,93,12,4.7
salinopolis,br,-0.61,-47.36,80.74,95,0,13.11
mount isa,au,-20.73,139.49,80.6,23,0,14.99
porto novo,cv,-23.68,-45.44,68.0,72,20,5.82
acapulco,mx,16.86,-99.88,87.8,66,40,9.17
sola,vu,58.89,5.65,54.48,93,90,3.36
derzhavinsk,kz,51.1,66.31,58.51,77,0,9.31
nishihara,jp,35.74,139.53,86.38,62,40,3.36
luanda,ao,-8.83,13.24,69.8,88,75,6.93
mochicahui,mx,25.95,-108.93,82.4,69,75,8.05
qasigiannguit,gl,68.82,-51.19,37.4,69,44,4.7
egvekinot,ru,66.32,-179.17,52.93,76,20,5.06
maldonado,uy,-34.91,-54.96,44.6,81,0,5.82
boguchany,ru,58.38,97.46,61.03,100,92,3.49
sawakin,sd,19.1,37.33,82.9,74,24,1.36
sao felix do xingu,br,-6.64,-51.99,77.86,72,24,2.15
turukhansk,ru,65.8,87.96,54.1,77,0,10.2
volokolamsk,ru,56.03,35.95,45.28,84,0,5.61
severodvinsk,ru,64.56,39.82,42.8,100,0,2.24
miri,my,10.31,9.75,67.06,95,48,6.73
svetlogorsk,ru,53.14,59.15,57.2,54,40,6.71
northam,au,51.04,-4.21,64.98,88,40,9.17
delta del tigre,uy,-34.76,-56.41,48.2,76,0,9.17
puerto ayacucho,ve,5.66,-67.63,82.4,69,40,2.48
geraldton,au,49.72,-86.95,68.0,52,40,5.82
puerto montt,cl,-41.47,-72.94,44.6,100,90,11.41
